{"type": "FeatureCollection", "features": [{"type": "Feature", "geometry": {"type": "Point", "coordinates": [28.814156, 41.036864]}, "properties": {"id": 205, "name": "15 Temmuz", "mode": "metro"}}, {"type": "Feature", "geometry": {"type": "Point", "coordinates": [28.818603, 41.006215]}, "properties": {"id": 208, "name": "29 Ekim Cumhuriyet", "mode": "metro"}}, {"type": "Feature", "geometry": {"type": "Point", "coordinates": [29.0070897722, 41.0860080659]}, "properties": {"id": 37, "name": "4.Levent", "mode": "metro"}}, {"type": "Feature", "geometry": {"type": "Point", "coordinates": [28.866925, 41.08781]}, "properties": {"id": 92, "name": "50.Y\u0131l-Ba\u015ftabya", "mode": "metro"}}, {"type": "Feature", "geometry": {"type": "Point", "coordinates": [29.0462, 41.0052]}, "properties": {"id": 4, "name": "Acibadem", "mode": "metro"}}, {"type": "Feature", "geometry": {"type": "Point", "coordinates": [29.044498290084867, 41.002331976173814]}, "properties": {"id": 12, "name": "Ac\u0131badem", "mode": "metro"}}, {"type": "Feature", "geometry": {"type": "Point", "coordinates": [28.8710305731, 41.0173366346]}, "properties": {"id": 61, "name": "Ak\u0131nc\u0131lar", "mode": "metro"}}, {"type": "Feature", "geometry": {"type": "Point", "coordinates": [28.9480625565, 41.0120281897]}, "properties": {"id": 76, "name": "Aksaray", "mode": "metro"}}, {"type": "Feature", "geometry": {"type": "Point", "coordinates": [28.9493602, 41.0791702]}, "properties": {"id": 146, "name": "Alibeyk\u00f6y", "mode": "metro"}}, {"type": "Feature", "geometry": {"type": "Point", "coordinates": [28.943988, 41.086915]}, "properties": {"id": 177, "name": "Alibeyk\u00f6y Cep Otogar\u0131", "mode": "metro"}}, {"type": "Feature", "geometry": {"type": "Point", "coordinates": [28.946063, 41.07381]}, "properties": {"id": 175, "name": "Alibeyk\u00f6y Merkez", "mode": "metro"}}, {"type": "Feature", "geometry": {"type": "Point", "coordinates": [28.949459, 41.07848]}, "properties": {"id": 176, "name": "Alibeyk\u00f6y Metro", "mode": "metro"}}, {"type": "Feature", "geometry": {"type": "Point", "coordinates": [28.895601, 41.068493]}, "properties": {"id": 97, "name": "Ali Fuat Ba\u015fgil", "mode": "metro"}}, {"type": "Feature", "geometry": {"type": "Point", "coordinates": [29.138624552588546, 41.01682949821649]}, "properties": {"id": 132, "name": "Alt\u0131n\u015fehir", "mode": "metro"}}, {"type": "Feature", "geometry": {"type": "Point", "coordinates": [29.029066, 40.99003]}, "properties": {"id": 179, "name": "Alt\u0131yol", "mode": "metro"}}, {"type": "Feature", "geometry": {"type": "Point", "coordinates": [29.045163182699945, 41.02256927368503]}, "properties": {"id": 124, "name": "Altunizade", "mode": "metro"}}, {"type": "Feature", "geometry": {"type": "Point", "coordinates": [29.05422416736053, 41.0815736348652]}, "properties": {"id": 200, "name": "A\u015fiyan", "mode": "metro"}}, {"type": "Feature", "geometry": {"type": "Point", "coordinates": [28.856218, 40.979916]}, "properties": {"id": 210, "name": "Atak\u00f6y", "mode": "metro"}}, {"type": "Feature", "geometry": {"type": "Point", "coordinates": [28.846082309, 40.9913500997]}, "properties": {"id": 111, "name": "Atak\u00f6y-\u015eirinevler", "mode": "metro"}}, {"type": "Feature", "geometry": {"type": "Point", "coordinates": [28.8211244027, 40.9795429431]}, "properties": {"id": 108, "name": "Atat\u00fcrk Havaliman\u0131", "mode": "metro"}}, {"type": "Feature", "geometry": {"type": "Point", "coordinates": [28.79864644035015, 41.05288544691126]}, "properties": {"id": 203, "name": "Atat\u00fcrk Mahallesi", "mode": "metro"}}, {"type": "Feature", "geometry": {"type": "Point", "coordinates": [29.0241897659, 41.1182574386]}, "properties": {"id": 41, "name": "Atat\u00fcrk Oto Sanayi", "mode": "metro"}}, {"type": "Feature", "geometry": {"type": "Point", "coordinates": [29.0245, 41.004]}, "properties": {"id": 3, "name": "Ayrilik Cesmesi", "mode": "metro"}}, {"type": "Feature", "geometry": {"type": "Point", "coordinates": [29.030153258203203, 41.00020434433358]}, "properties": {"id": 11, "name": "Ayr\u0131l\u0131k \u00c7e\u015fmesi", "mode": "metro"}}, {"type": "Feature", "geometry": {"type": "Point", "coordinates": [29.0868577820603, 40.966729619003274]}, "properties": {"id": 156, "name": "Ay\u015fekad\u0131n", "mode": "metro"}}, {"type": "Feature", "geometry": {"type": "Point", "coordinates": [28.943916, 41.039607]}, "properties": {"id": 169, "name": "Ayvansaray", "mode": "metro"}}, {"type": "Feature", "geometry": {"type": "Point", "coordinates": [28.860647218, 41.0330863118]}, "properties": {"id": 57, "name": "Ba\u011fc\u0131lar", "mode": "metro"}}, {"type": "Feature", "geometry": {"type": "Point", "coordinates": [28.8561714937, 41.0345164689]}, "properties": {"id": 53, "name": "Ba\u011fc\u0131lar Meydan", "mode": "metro"}}, {"type": "Feature", "geometry": {"type": "Point", "coordinates": [29.035391369205474, 41.02148576285262]}, "properties": {"id": 123, "name": "Ba\u011flarba\u015f\u0131", "mode": "metro"}}, {"type": "Feature", "geometry": {"type": "Point", "coordinates": [28.79921854037114, 41.058692228126105]}, "properties": {"id": 180, "name": "Bahariye", "mode": "metro"}}, {"type": "Feature", "geometry": {"type": "Point", "coordinates": [28.8630661969, 40.9953532384]}, "properties": {"id": 112, "name": "Bah\u00e7elievler", "mode": "metro"}}, {"type": "Feature", "geometry": {"type": "Point", "coordinates": [28.8753997556, 40.9966121333]}, "properties": {"id": 113, "name": "Bak\u0131rk\u00f6y-\u0130ncirli", "mode": "metro"}}, {"type": "Feature", "geometry": {"type": "Point", "coordinates": [28.86808953853861, 40.97380907939043]}, "properties": {"id": 225, "name": "Bak\u0131rk\u00f6y Sahil", "mode": "metro"}}, {"type": "Feature", "geometry": {"type": "Point", "coordinates": [28.948012, 41.034098]}, "properties": {"id": 168, "name": "Balat", "mode": "metro"}}, {"type": "Feature", "geometry": {"type": "Point", "coordinates": [28.7912824671, 41.0976705948]}, "properties": {"id": 45, "name": "Ba\u015fak Konutlar\u0131", "mode": "metro"}}, {"type": "Feature", "geometry": {"type": "Point", "coordinates": [28.8014768347, 41.1075899254]}, "properties": {"id": 44, "name": "Ba\u015fak\u015fehir-Metrokent", "mode": "metro"}}, {"type": "Feature", "geometry": {"type": "Point", "coordinates": [28.920238689, 41.0340978572]}, "properties": {"id": 118, "name": "Bayrampa\u015fa-Maltepe", "mode": "metro"}}, {"type": "Feature", "geometry": {"type": "Point", "coordinates": [28.9666944396, 41.0090689647]}, "properties": {"id": 78, "name": "Beyaz\u0131t-Kapal\u0131\u00e7ar\u015f\u0131", "mode": "metro"}}, {"type": "Feature", "geometry": {"type": "Point", "coordinates": [29.045519, 41.085278]}, "properties": {"id": 139, "name": "Bo\u011fazi\u00e7i \u00dc.-Hisar\u00fcst\u00fc", "mode": "metro"}}, {"type": "Feature", "geometry": {"type": "Point", "coordinates": [29.051021003065568, 41.08486726284434]}, "properties": {"id": 201, "name": "Bo\u011fazi\u00e7i \u00dc./Hisar\u00fcst\u00fc", "mode": "metro"}}, {"type": "Feature", "geometry": {"type": "Point", "coordinates": [28.902093, 41.061832]}, "properties": {"id": 98, "name": "Bosna \u00c7ukur\u00e7e\u015fme", "mode": "metro"}}, {"type": "Feature", "geometry": {"type": "Point", "coordinates": [29.107, 40.976]}, "properties": {"id": 9, "name": "Bostanci", "mode": "metro"}}, {"type": "Feature", "geometry": {"type": "Point", "coordinates": [29.097243057130374, 40.95128998347687]}, "properties": {"id": 16, "name": "Bostanc\u0131", "mode": "metro"}}, {"type": "Feature", "geometry": {"type": "Point", "coordinates": [29.07613191178137, 41.016382220485276]}, "properties": {"id": 126, "name": "Bulgurlu", "mode": "metro"}}, {"type": "Feature", "geometry": {"type": "Point", "coordinates": [28.9797905, 41.07124]}, "properties": {"id": 143, "name": "\u00c7a\u011flayan", "mode": "metro"}}, {"type": "Feature", "geometry": {"type": "Point", "coordinates": [29.11831687527492, 41.021651794492854]}, "properties": {"id": 130, "name": "\u00c7akmak", "mode": "metro"}}, {"type": "Feature", "geometry": {"type": "Point", "coordinates": [28.9320271861, 41.0158833289]}, "properties": {"id": 72, "name": "\u00c7apa-\u015eehremini", "mode": "metro"}}, {"type": "Feature", "geometry": {"type": "Point", "coordinates": [29.025428, 40.991075]}, "properties": {"id": 128, "name": "\u00c7ar\u015f\u0131", "mode": "metro"}}, {"type": "Feature", "geometry": {"type": "Point", "coordinates": [28.8578071487, 41.1119217418]}, "properties": {"id": 89, "name": "Cebeci", "mode": "metro"}}, {"type": "Feature", "geometry": {"type": "Point", "coordinates": [29.189447811535, 41.01456617003643]}, "properties": {"id": 136, "name": "\u00c7ekmek\u00f6y", "mode": "metro"}}, {"type": "Feature", "geometry": {"type": "Point", "coordinates": [28.9711260369, 41.0084369787]}, "properties": {"id": 79, "name": "\u00c7emberlita\u015f", "mode": "metro"}}, {"type": "Feature", "geometry": {"type": "Point", "coordinates": [28.9115738934, 41.0159557944]}, "properties": {"id": 69, "name": "Cevizliba\u011f-A\u00d6Y", "mode": "metro"}}, {"type": "Feature", "geometry": {"type": "Point", "coordinates": [28.960265, 41.024336]}, "properties": {"id": 166, "name": "Cibali", "mode": "metro"}}, {"type": "Feature", "geometry": {"type": "Point", "coordinates": [28.93762, 41.07985]}, "properties": {"id": 147, "name": "\u00c7\u0131r\u00e7\u0131r Mahallesi", "mode": "metro"}}, {"type": "Feature", "geometry": {"type": "Point", "coordinates": [28.822589, 40.999713]}, "properties": {"id": 209, "name": "\u00c7oban\u00e7e\u015fme", "mode": "metro"}}, {"type": "Feature", "geometry": {"type": "Point", "coordinates": [28.8723589675, 41.0837494209]}, "properties": {"id": 93, "name": "Cumhuriyet Mahallesi", "mode": "metro"}}, {"type": "Feature", "geometry": {"type": "Point", "coordinates": [29.021009, 40.987945]}, "properties": {"id": 185, "name": "Damga Sokak", "mode": "metro"}}, {"type": "Feature", "geometry": {"type": "Point", "coordinates": [29.0251244919, 41.1295823098]}, "properties": {"id": 42, "name": "Dar\u00fc\u015f\u015fafaka", "mode": "metro"}}, {"type": "Feature", "geometry": {"type": "Point", "coordinates": [28.9001417888, 41.0206387059]}, "properties": {"id": 115, "name": "Davutpa\u015fa-YT\u00dc", "mode": "metro"}}, {"type": "Feature", "geometry": {"type": "Point", "coordinates": [28.923366509, 41.0369881849]}, "properties": {"id": 103, "name": "Demirkap\u0131", "mode": "metro"}}, {"type": "Feature", "geometry": {"type": "Point", "coordinates": [28.817986, 41.014893]}, "properties": {"id": 207, "name": "Do\u011fu Sanayi", "mode": "metro"}}, {"type": "Feature", "geometry": {"type": "Point", "coordinates": [28.8285503243, 40.9866455145]}, "properties": {"id": 109, "name": "DTM-\u0130stanbul Fuar Merkezi", "mode": "metro"}}, {"type": "Feature", "geometry": {"type": "Point", "coordinates": [29.162499998040506, 41.01556997960766]}, "properties": {"id": 134, "name": "Dudullu", "mode": "metro"}}, {"type": "Feature", "geometry": {"type": "Point", "coordinates": [28.9339710061, 41.0314409253]}, "properties": {"id": 105, "name": "Edirnekap\u0131", "mode": "metro"}}, {"type": "Feature", "geometry": {"type": "Point", "coordinates": [29.09385026231631, 40.96054884646437]}, "properties": {"id": 155, "name": "Emin Ali Pa\u015fa", "mode": "metro"}}, {"type": "Feature", "geometry": {"type": "Point", "coordinates": [28.970220633282402, 41.01833251289325]}, "properties": {"id": 83, "name": "Emin\u00f6n\u00fc", "mode": "metro"}}, {"type": "Feature", "geometry": {"type": "Point", "coordinates": [28.9395963977, 41.0176115439]}, "properties": {"id": 120, "name": "Emniyet-Fatih", "mode": "metro"}}, {"type": "Feature", "geometry": {"type": "Point", "coordinates": [29.166297696250616, 40.920594425063584]}, "properties": {"id": 21, "name": "Esenkent", "mode": "metro"}}, {"type": "Feature", "geometry": {"type": "Point", "coordinates": [28.8884222852, 41.037682433]}, "properties": {"id": 56, "name": "Esenler", "mode": "metro"}}, {"type": "Feature", "geometry": {"type": "Point", "coordinates": [29.037593, 41.082395]}, "properties": {"id": 138, "name": "Etiler", "mode": "metro"}}, {"type": "Feature", "geometry": {"type": "Point", "coordinates": [28.9339131846, 41.0505432043]}, "properties": {"id": 189, "name": "Ey\u00fcp", "mode": "metro"}}, {"type": "Feature", "geometry": {"type": "Point", "coordinates": [28.941212, 41.056765]}, "properties": {"id": 172, "name": "Ey\u00fcpsultan Devlet Hastanesi", "mode": "metro"}}, {"type": "Feature", "geometry": {"type": "Point", "coordinates": [28.935202, 41.050482]}, "properties": {"id": 171, "name": "Ey\u00fcpsultan Teleferik", "mode": "metro"}}, {"type": "Feature", "geometry": {"type": "Point", "coordinates": [28.954462, 41.028663]}, "properties": {"id": 167, "name": "Fener", "mode": "metro"}}, {"type": "Feature", "geometry": {"type": "Point", "coordinates": [28.937978, 41.045456]}, "properties": {"id": 170, "name": "Feshane", "mode": "metro"}}, {"type": "Feature", "geometry": {"type": "Point", "coordinates": [28.9253344699, 41.021825006]}, "properties": {"id": 107, "name": "Fetihkap\u0131", "mode": "metro"}}, {"type": "Feature", "geometry": {"type": "Point", "coordinates": [29.262377999300135, 40.888913773148275]}, "properties": {"id": 196, "name": "Fevzi \u00c7akmak-Hastane", "mode": "metro"}}, {"type": "Feature", "geometry": {"type": "Point", "coordinates": [28.9894378694, 41.0314551495]}, "properties": {"id": 86, "name": "F\u0131nd\u0131kl\u0131-Mimar Sinan \u00dc.", "mode": "metro"}}, {"type": "Feature", "geometry": {"type": "Point", "coordinates": [28.940655673320745, 41.0117062059472]}, "properties": {"id": 73, "name": "F\u0131nd\u0131kzade", "mode": "metro"}}, {"type": "Feature", "geometry": {"type": "Point", "coordinates": [29.028549998040898, 41.028174185609586]}, "properties": {"id": 122, "name": "F\u0131st\u0131ka\u011fac\u0131", "mode": "metro"}}, {"type": "Feature", "geometry": {"type": "Point", "coordinates": [29.007236307110315, 41.0619540753492]}, "properties": {"id": 141, "name": "Fulya", "mode": "metro"}}, {"type": "Feature", "geometry": {"type": "Point", "coordinates": [29.0109200808, 41.0690012375]}, "properties": {"id": 35, "name": "Gayrettepe", "mode": "metro"}}, {"type": "Feature", "geometry": {"type": "Point", "coordinates": [29.059, 40.9923]}, "properties": {"id": 6, "name": "Goztepe", "mode": "metro"}}, {"type": "Feature", "geometry": {"type": "Point", "coordinates": [29.070446236116393, 40.9939284023244]}, "properties": {"id": 14, "name": "G\u00f6ztepe", "mode": "metro"}}, {"type": "Feature", "geometry": {"type": "Point", "coordinates": [28.8499689, 41.0563991]}, "properties": {"id": 154, "name": "G\u00f6ztepe Mahallesi", "mode": "metro"}}, {"type": "Feature", "geometry": {"type": "Point", "coordinates": [28.978420569, 41.0121648083]}, "properties": {"id": 81, "name": "G\u00fclhane", "mode": "metro"}}, {"type": "Feature", "geometry": {"type": "Point", "coordinates": [29.156546529079005, 40.92389300760361]}, "properties": {"id": 20, "name": "G\u00fclsuyu", "mode": "metro"}}, {"type": "Feature", "geometry": {"type": "Point", "coordinates": [28.860949736, 41.0289950489]}, "properties": {"id": 58, "name": "G\u00fcne\u015ftepe", "mode": "metro"}}, {"type": "Feature", "geometry": {"type": "Point", "coordinates": [28.8775090458, 41.0152104262]}, "properties": {"id": 62, "name": "G\u00fcng\u00f6ren", "mode": "metro"}}, {"type": "Feature", "geometry": {"type": "Point", "coordinates": [29.0304324362, 41.1397745691]}, "properties": {"id": 43, "name": "Hac\u0131osman", "mode": "metro"}}, {"type": "Feature", "geometry": {"type": "Point", "coordinates": [28.8640033599, 41.0929087651]}, "properties": {"id": 91, "name": "Hac\u0131 \u015e\u00fckr\u00fc", "mode": "metro"}}, {"type": "Feature", "geometry": {"type": "Point", "coordinates": [28.9664183343, 41.0224366195]}, "properties": {"id": 30, "name": "Hali\u00e7", "mode": "metro"}}, {"type": "Feature", "geometry": {"type": "Point", "coordinates": [28.80633957331045, 41.04552704030184]}, "properties": {"id": 204, "name": "Halkal\u0131 Caddesi", "mode": "metro"}}, {"type": "Feature", "geometry": {"type": "Point", "coordinates": [28.9442927851, 41.0107098606]}, "properties": {"id": 74, "name": "Haseki", "mode": "metro"}}, {"type": "Feature", "geometry": {"type": "Point", "coordinates": [29.178430843993343, 40.916312335081564]}, "properties": {"id": 22, "name": "Hastane-Adliye", "mode": "metro"}}, {"type": "Feature", "geometry": {"type": "Point", "coordinates": [28.870525623196162, 41.006429380800306]}, "properties": {"id": 222, "name": "Haznedar", "mode": "metro"}}, {"type": "Feature", "geometry": {"type": "Point", "coordinates": [29.15945298159044, 41.022498790602256]}, "properties": {"id": 164, "name": "Huzur", "mode": "metro"}}, {"type": "Feature", "geometry": {"type": "Point", "coordinates": [29.1469453905599, 40.92996421985499]}, "properties": {"id": 19, "name": "Huzurevi", "mode": "metro"}}, {"type": "Feature", "geometry": {"type": "Point", "coordinates": [29.126665087038585, 40.979123476347006]}, "properties": {"id": 159, "name": "\u0130\u00e7erenk\u00f6y", "mode": "metro"}}, {"type": "Feature", "geometry": {"type": "Point", "coordinates": [29.13128274037028, 41.0193938740756]}, "properties": {"id": 131, "name": "Ihlamurkuyu", "mode": "metro"}}, {"type": "Feature", "geometry": {"type": "Point", "coordinates": [28.80359489619547, 41.071592188454204]}, "properties": {"id": 48, "name": "\u0130kitelli Sanayi", "mode": "metro"}}, {"type": "Feature", "geometry": {"type": "Point", "coordinates": [28.865987182720854, 41.0117525985906]}, "properties": {"id": 221, "name": "\u0130lkyuva", "mode": "metro"}}, {"type": "Feature", "geometry": {"type": "Point", "coordinates": [29.15243635386462, 41.016188074469916]}, "properties": {"id": 133, "name": "\u0130mam Hatip Lisesi", "mode": "metro"}}, {"type": "Feature", "geometry": {"type": "Point", "coordinates": [29.156059357475755, 40.99995161943781]}, "properties": {"id": 162, "name": "\u0130MES", "mode": "metro"}}, {"type": "Feature", "geometry": {"type": "Point", "coordinates": [28.875149165334438, 40.99749718083783]}, "properties": {"id": 223, "name": "\u0130ncirli", "mode": "metro"}}, {"type": "Feature", "geometry": {"type": "Point", "coordinates": [29.022135, 40.989941]}, "properties": {"id": 178, "name": "\u0130skele Camii", "mode": "metro"}}, {"type": "Feature", "geometry": {"type": "Point", "coordinates": [28.8259591715, 41.0649996532]}, "properties": {"id": 49, "name": "\u0130STO\u00c7", "mode": "metro"}}, {"type": "Feature", "geometry": {"type": "Point", "coordinates": [29.0207947235, 41.108094796]}, "properties": {"id": 40, "name": "\u0130T\u00dc-Ayaza\u011fa", "mode": "metro"}}, {"type": "Feature", "geometry": {"type": "Point", "coordinates": [28.9922350785, 41.0338745666]}, "properties": {"id": 87, "name": "Kabata\u015f", "mode": "metro"}}, {"type": "Feature", "geometry": {"type": "Point", "coordinates": [29.0256, 40.99]}, "properties": {"id": 1, "name": "Kadikoy", "mode": "metro"}}, {"type": "Feature", "geometry": {"type": "Point", "coordinates": [29.02200761747134, 40.990663811475805]}, "properties": {"id": 10, "name": "Kad\u0131k\u00f6y", "mode": "metro"}}, {"type": "Feature", "geometry": {"type": "Point", "coordinates": [29.020977, 40.989273]}, "properties": {"id": 186, "name": "Kad\u0131k\u00f6y \u0130DO", "mode": "metro"}}, {"type": "Feature", "geometry": {"type": "Point", "coordinates": [28.9722495, 41.0799698]}, "properties": {"id": 144, "name": "Ka\u011f\u0131thane", "mode": "metro"}}, {"type": "Feature", "geometry": {"type": "Point", "coordinates": [28.8822357296, 41.0752992311]}, "properties": {"id": 95, "name": "Karadeniz", "mode": "metro"}}, {"type": "Feature", "geometry": {"type": "Point", "coordinates": [28.8754204, 41.0815994]}, "properties": {"id": 151, "name": "Karadeniz Mahallesi", "mode": "metro"}}, {"type": "Feature", "geometry": {"type": "Point", "coordinates": [28.9746840227, 41.0221165813]}, "properties": {"id": 84, "name": "Karak\u00f6y", "mode": "metro"}}, {"type": "Feature", "geometry": {"type": "Point", "coordinates": [29.211026353862238, 40.90681782551962]}, "properties": {"id": 24, "name": "Kartal", "mode": "metro"}}, {"type": "Feature", "geometry": {"type": "Point", "coordinates": [28.766642996218255, 41.12006437207407]}, "properties": {"id": 214, "name": "Kaya\u015fehir Merkez", "mode": "metro"}}, {"type": "Feature", "geometry": {"type": "Point", "coordinates": [29.137286259239595, 40.98552090314198]}, "properties": {"id": 160, "name": "Kay\u0131\u015fda\u011f\u0131", "mode": "metro"}}, {"type": "Feature", "geometry": {"type": "Point", "coordinates": [28.9085497, 41.0854599]}, "properties": {"id": 150, "name": "Kaz\u0131m Karabekir", "mode": "metro"}}, {"type": "Feature", "geometry": {"type": "Point", "coordinates": [29.027885, 40.986078]}, "properties": {"id": 181, "name": "Kilise", "mode": "metro"}}, {"type": "Feature", "geometry": {"type": "Point", "coordinates": [28.875993057122308, 41.07985707357942]}, "properties": {"id": 94, "name": "Kipta\u015f-Venezia", "mode": "metro"}}, {"type": "Feature", "geometry": {"type": "Point", "coordinates": [28.8427689525, 41.0322960516]}, "properties": {"id": 52, "name": "Kirazl\u0131-Ba\u011fc\u0131lar", "mode": "metro"}}, {"type": "Feature", "geometry": {"type": "Point", "coordinates": [29.062589925029574, 41.02223769603908]}, "properties": {"id": 125, "name": "K\u0131s\u0131kl\u0131", "mode": "metro"}}, {"type": "Feature", "geometry": {"type": "Point", "coordinates": [28.8953862076, 41.0484928183]}, "properties": {"id": 117, "name": "Kocatepe", "mode": "metro"}}, {"type": "Feature", "geometry": {"type": "Point", "coordinates": [29.099, 40.983]}, "properties": {"id": 8, "name": "Kozyatagi", "mode": "metro"}}, {"type": "Feature", "geometry": {"type": "Point", "coordinates": [29.098809408749805, 40.97524724462983]}, "properties": {"id": 157, "name": "Kozyata\u011f\u0131", "mode": "metro"}}, {"type": "Feature", "geometry": {"type": "Point", "coordinates": [29.111999801732374, 40.97913311692388]}, "properties": {"id": 158, "name": "K\u00fc\u00e7\u00fckbakkalk\u00f6y", "mode": "metro"}}, {"type": "Feature", "geometry": {"type": "Point", "coordinates": [28.96307565267346, 41.0211067072648]}, "properties": {"id": 165, "name": "K\u00fc\u00e7\u00fckpazar", "mode": "metro"}}, {"type": "Feature", "geometry": {"type": "Point", "coordinates": [29.123705678871918, 40.94848177811069]}, "properties": {"id": 17, "name": "K\u00fc\u00e7\u00fckyal\u0131", "mode": "metro"}}, {"type": "Feature", "geometry": {"type": "Point", "coordinates": [29.297057446459206, 40.91061969898158]}, "properties": {"id": 198, "name": "Kurtk\u00f6y", "mode": "metro"}}, {"type": "Feature", "geometry": {"type": "Point", "coordinates": [28.9597865368, 41.0095870715]}, "properties": {"id": 77, "name": "Laleli-\u0130stanbul \u00dc.", "mode": "metro"}}, {"type": "Feature", "geometry": {"type": "Point", "coordinates": [29.014142, 41.075888]}, "properties": {"id": 36, "name": "Levent", "mode": "metro"}}, {"type": "Feature", "geometry": {"type": "Point", "coordinates": [28.9936254852, 41.0446506053]}, "properties": {"id": 187, "name": "Ma\u00e7ka", "mode": "metro"}}, {"type": "Feature", "geometry": {"type": "Point", "coordinates": [28.830612, 41.054312]}, "properties": {"id": 50, "name": "Mahmutbey", "mode": "metro"}}, {"type": "Feature", "geometry": {"type": "Point", "coordinates": [29.13681462729192, 40.93649417481334]}, "properties": {"id": 18, "name": "Maltepe", "mode": "metro"}}, {"type": "Feature", "geometry": {"type": "Point", "coordinates": [28.804145099888043, 41.064346478553354]}, "properties": {"id": 194, "name": "MASKO", "mode": "metro"}}, {"type": "Feature", "geometry": {"type": "Point", "coordinates": [28.9945802, 41.0661411]}, "properties": {"id": 142, "name": "Mecidiyek\u00f6y", "mode": "metro"}}, {"type": "Feature", "geometry": {"type": "Point", "coordinates": [29.198827223504292, 41.0097339184714]}, "properties": {"id": 215, "name": "Meclis", "mode": "metro"}}, {"type": "Feature", "geometry": {"type": "Point", "coordinates": [28.8816767755, 41.00580192]}, "properties": {"id": 64, "name": "Mehmet Akif", "mode": "metro"}}, {"type": "Feature", "geometry": {"type": "Point", "coordinates": [28.8784878297, 41.0427591002]}, "properties": {"id": 55, "name": "Menderes", "mode": "metro"}}, {"type": "Feature", "geometry": {"type": "Point", "coordinates": [28.9095014291, 41.0103922551]}, "properties": {"id": 68, "name": "Merkezefendi", "mode": "metro"}}, {"type": "Feature", "geometry": {"type": "Point", "coordinates": [28.8961771147, 41.0076458753]}, "properties": {"id": 114, "name": "Merter", "mode": "metro"}}, {"type": "Feature", "geometry": {"type": "Point", "coordinates": [28.8807549715, 41.0115593225]}, "properties": {"id": 63, "name": "Merter Tekstil Merkezi", "mode": "metro"}}, {"type": "Feature", "geometry": {"type": "Point", "coordinates": [28.851229, 41.116218]}, "properties": {"id": 88, "name": "Mescid-i Selam", "mode": "metro"}}, {"type": "Feature", "geometry": {"type": "Point", "coordinates": [29.153558958239127, 40.99236746200459]}, "properties": {"id": 161, "name": "Mevlana", "mode": "metro"}}, {"type": "Feature", "geometry": {"type": "Point", "coordinates": [28.816549, 41.025085]}, "properties": {"id": 206, "name": "Mimar Sinan", "mode": "metro"}}, {"type": "Feature", "geometry": {"type": "Point", "coordinates": [28.9014562172, 41.003492938]}, "properties": {"id": 66, "name": "Mithatpa\u015fa", "mode": "metro"}}, {"type": "Feature", "geometry": {"type": "Point", "coordinates": [29.024892, 40.983932]}, "properties": {"id": 183, "name": "Moda", "mode": "metro"}}, {"type": "Feature", "geometry": {"type": "Point", "coordinates": [29.026652, 40.98411]}, "properties": {"id": 182, "name": "Moda \u0130lkokulu", "mode": "metro"}}, {"type": "Feature", "geometry": {"type": "Point", "coordinates": [29.162182913381205, 41.00761665286443]}, "properties": {"id": 163, "name": "MODOKO-KEYAP", "mode": "metro"}}, {"type": "Feature", "geometry": {"type": "Point", "coordinates": [28.848112725049546, 41.02551147580674]}, "properties": {"id": 219, "name": "Molla G\u00fcrani", "mode": "metro"}}, {"type": "Feature", "geometry": {"type": "Point", "coordinates": [29.021598, 40.985098]}, "properties": {"id": 184, "name": "M\u00fch\u00fcrdar", "mode": "metro"}}, {"type": "Feature", "geometry": {"type": "Point", "coordinates": [29.17929437105173, 41.01620878613601]}, "properties": {"id": 135, "name": "Necip Faz\u0131l", "mode": "metro"}}, {"type": "Feature", "geometry": {"type": "Point", "coordinates": [29.022356, 41.077692]}, "properties": {"id": 137, "name": "Nispetiye", "mode": "metro"}}, {"type": "Feature", "geometry": {"type": "Point", "coordinates": [28.9629489, 41.0796403]}, "properties": {"id": 145, "name": "Nurtepe", "mode": "metro"}}, {"type": "Feature", "geometry": {"type": "Point", "coordinates": [28.768494442218014, 41.07978582261958]}, "properties": {"id": 192, "name": "Olimpiyat", "mode": "metro"}}, {"type": "Feature", "geometry": {"type": "Point", "coordinates": [28.79034835203765, 41.11350955222164]}, "properties": {"id": 211, "name": "Onurkent", "mode": "metro"}}, {"type": "Feature", "geometry": {"type": "Point", "coordinates": [28.8554406, 41.0633806]}, "properties": {"id": 153, "name": "Oru\u00e7 Reis", "mode": "metro"}}, {"type": "Feature", "geometry": {"type": "Point", "coordinates": [28.987375, 41.052955]}, "properties": {"id": 33, "name": "Osmanbey", "mode": "metro"}}, {"type": "Feature", "geometry": {"type": "Point", "coordinates": [28.8945600984, 41.0401441651]}, "properties": {"id": 191, "name": "Otogar", "mode": "metro"}}, {"type": "Feature", "geometry": {"type": "Point", "coordinates": [28.873888809703004, 40.98184836284361]}, "properties": {"id": 224, "name": "\u00d6zg\u00fcrl\u00fck Meydan\u0131", "mode": "metro"}}, {"type": "Feature", "geometry": {"type": "Point", "coordinates": [29.152689072367757, 41.03187863452558]}, "properties": {"id": 202, "name": "Parseller", "mode": "metro"}}, {"type": "Feature", "geometry": {"type": "Point", "coordinates": [28.9271526286, 41.0182661997]}, "properties": {"id": 71, "name": "Pazartekke", "mode": "metro"}}, {"type": "Feature", "geometry": {"type": "Point", "coordinates": [29.099330474424526, 40.9748528607554]}, "properties": {"id": 15, "name": "Pegasus-Kozyata\u011f\u0131", "mode": "metro"}}, {"type": "Feature", "geometry": {"type": "Point", "coordinates": [29.23816910887322, 40.888385865460556]}, "properties": {"id": 26, "name": "Pendik", "mode": "metro"}}, {"type": "Feature", "geometry": {"type": "Point", "coordinates": [28.9327417801, 41.054193241]}, "properties": {"id": 190, "name": "Piyer Loti", "mode": "metro"}}, {"type": "Feature", "geometry": {"type": "Point", "coordinates": [28.915598, 41.046518]}, "properties": {"id": 101, "name": "Rami", "mode": "metro"}}, {"type": "Feature", "geometry": {"type": "Point", "coordinates": [29.023221050093916, 40.984465405285626]}, "properties": {"id": 195, "name": "R\u0131zapa\u015fa", "mode": "metro"}}, {"type": "Feature", "geometry": {"type": "Point", "coordinates": [29.310554150804887, 40.90597411173135]}, "properties": {"id": 199, "name": "Sabiha G\u00f6k\u00e7en Havaliman\u0131", "mode": "metro"}}, {"type": "Feature", "geometry": {"type": "Point", "coordinates": [28.9072352877, 41.0408544497]}, "properties": {"id": 99, "name": "Sa\u011fmalc\u0131lar", "mode": "metro"}}, {"type": "Feature", "geometry": {"type": "Point", "coordinates": [29.231410725047297, 40.983897557616025]}, "properties": {"id": 218, "name": "Samand\u0131ra Merkez", "mode": "metro"}}, {"type": "Feature", "geometry": {"type": "Point", "coordinates": [29.0053380126, 41.0943240181]}, "properties": {"id": 38, "name": "Sanayi Mahallesi", "mode": "metro"}}, {"type": "Feature", "geometry": {"type": "Point", "coordinates": [29.22925491155591, 40.99133734652666]}, "properties": {"id": 217, "name": "Sancaktepe", "mode": "metro"}}, {"type": "Feature", "geometry": {"type": "Point", "coordinates": [29.212121182720836, 41.01031088932276]}, "properties": {"id": 216, "name": "Sar\u0131gazi", "mode": "metro"}}, {"type": "Feature", "geometry": {"type": "Point", "coordinates": [28.777855352037243, 41.103457237940475]}, "properties": {"id": 212, "name": "\u015eehir Hastanesi", "mode": "metro"}}, {"type": "Feature", "geometry": {"type": "Point", "coordinates": [28.9282530221, 41.0341823475]}, "properties": {"id": 104, "name": "\u015eehitlik", "mode": "metro"}}, {"type": "Feature", "geometry": {"type": "Point", "coordinates": [28.9075130061, 41.0042150705]}, "properties": {"id": 67, "name": "Seyitnizam-Ak\u015femsettin", "mode": "metro"}}, {"type": "Feature", "geometry": {"type": "Point", "coordinates": [28.997775, 41.100906]}, "properties": {"id": 39, "name": "Seyrantepe", "mode": "metro"}}, {"type": "Feature", "geometry": {"type": "Point", "coordinates": [28.942874, 41.064775]}, "properties": {"id": 173, "name": "Silahtara\u011fa Mahallesi", "mode": "metro"}}, {"type": "Feature", "geometry": {"type": "Point", "coordinates": [28.9758901555, 41.0151806347]}, "properties": {"id": 82, "name": "Sirkeci", "mode": "metro"}}, {"type": "Feature", "geometry": {"type": "Point", "coordinates": [28.97285, 41.028298]}, "properties": {"id": 31, "name": "\u015ei\u015fhane", "mode": "metro"}}, {"type": "Feature", "geometry": {"type": "Point", "coordinates": [28.9926697578, 41.0645069127]}, "properties": {"id": 34, "name": "\u015ei\u015fli-Mecidiyek\u00f6y", "mode": "metro"}}, {"type": "Feature", "geometry": {"type": "Point", "coordinates": [28.7965104065, 41.0882027223]}, "properties": {"id": 46, "name": "Siteler", "mode": "metro"}}, {"type": "Feature", "geometry": {"type": "Point", "coordinates": [28.8670797269, 41.0209689646]}, "properties": {"id": 60, "name": "So\u011fanl\u0131", "mode": "metro"}}, {"type": "Feature", "geometry": {"type": "Point", "coordinates": [29.192839855288547, 40.912789206970004]}, "properties": {"id": 23, "name": "So\u011fanl\u0131k", "mode": "metro"}}, {"type": "Feature", "geometry": {"type": "Point", "coordinates": [29.0286, 40.995]}, "properties": {"id": 2, "name": "Sogutlucesme", "mode": "metro"}}, {"type": "Feature", "geometry": {"type": "Point", "coordinates": [28.9755834871, 41.0080890263]}, "properties": {"id": 80, "name": "Sultanahmet", "mode": "metro"}}, {"type": "Feature", "geometry": {"type": "Point", "coordinates": [28.8606445832, 41.1061320011]}, "properties": {"id": 90, "name": "Sultan\u00e7iftli\u011fi", "mode": "metro"}}, {"type": "Feature", "geometry": {"type": "Point", "coordinates": [28.9868190279, 41.0366994647]}, "properties": {"id": 32, "name": "Taksim", "mode": "metro"}}, {"type": "Feature", "geometry": {"type": "Point", "coordinates": [28.99034291338203, 41.04367845791161]}, "properties": {"id": 188, "name": "Ta\u015fk\u0131\u015fla", "mode": "metro"}}, {"type": "Feature", "geometry": {"type": "Point", "coordinates": [28.8876475166, 41.0726579715]}, "properties": {"id": 96, "name": "Ta\u015fk\u00f6pr\u00fc", "mode": "metro"}}, {"type": "Feature", "geometry": {"type": "Point", "coordinates": [29.248573155917992, 40.88225595122738]}, "properties": {"id": 27, "name": "Tav\u015fantepe", "mode": "metro"}}, {"type": "Feature", "geometry": {"type": "Point", "coordinates": [28.8668802, 41.0712997]}, "properties": {"id": 152, "name": "Tekstilkent-Giyimkent", "mode": "metro"}}, {"type": "Feature", "geometry": {"type": "Point", "coordinates": [28.8979522419, 41.0303317032]}, "properties": {"id": 116, "name": "Terazidere", "mode": "metro"}}, {"type": "Feature", "geometry": {"type": "Point", "coordinates": [28.919608, 41.041546]}, "properties": {"id": 102, "name": "Top\u00e7ular", "mode": "metro"}}, {"type": "Feature", "geometry": {"type": "Point", "coordinates": [28.9808626704, 41.026992487]}, "properties": {"id": 85, "name": "Tophane", "mode": "metro"}}, {"type": "Feature", "geometry": {"type": "Point", "coordinates": [28.9194470285, 41.0192295429]}, "properties": {"id": 70, "name": "Topkap\u0131", "mode": "metro"}}, {"type": "Feature", "geometry": {"type": "Point", "coordinates": [28.9305034257, 41.0240250582]}, "properties": {"id": 119, "name": "Topkap\u0131-Ulubatl\u0131", "mode": "metro"}}, {"type": "Feature", "geometry": {"type": "Point", "coordinates": [28.76788272505376, 41.1076043981571]}, "properties": {"id": 213, "name": "Toplu Konutlar", "mode": "metro"}}, {"type": "Feature", "geometry": {"type": "Point", "coordinates": [28.7974049311, 41.0811852568]}, "properties": {"id": 47, "name": "Turgut \u00d6zal", "mode": "metro"}}, {"type": "Feature", "geometry": {"type": "Point", "coordinates": [28.8706340581, 41.036721597]}, "properties": {"id": 54, "name": "\u00dc\u00e7y\u00fczl\u00fc", "mode": "metro"}}, {"type": "Feature", "geometry": {"type": "Point", "coordinates": [28.9102461379, 41.0541381814]}, "properties": {"id": 100, "name": "Uluyol Bere\u00e7", "mode": "metro"}}, {"type": "Feature", "geometry": {"type": "Point", "coordinates": [29.084914619850238, 41.02475044117759]}, "properties": {"id": 127, "name": "\u00dcmraniye", "mode": "metro"}}, {"type": "Feature", "geometry": {"type": "Point", "coordinates": [29.043, 41.01]}, "properties": {"id": 5, "name": "Unalan", "mode": "metro"}}, {"type": "Feature", "geometry": {"type": "Point", "coordinates": [29.061370874184917, 40.997886812202864]}, "properties": {"id": 13, "name": "\u00dcnalan", "mode": "metro"}}, {"type": "Feature", "geometry": {"type": "Point", "coordinates": [28.942865, 41.069833]}, "properties": {"id": 174, "name": "\u00dcniversite", "mode": "metro"}}, {"type": "Feature", "geometry": {"type": "Point", "coordinates": [29.015061927581854, 41.025618259645256]}, "properties": {"id": 121, "name": "\u00dcsk\u00fcdar", "mode": "metro"}}, {"type": "Feature", "geometry": {"type": "Point", "coordinates": [28.9293559649, 41.0256946675]}, "properties": {"id": 106, "name": "Vatan", "mode": "metro"}}, {"type": "Feature", "geometry": {"type": "Point", "coordinates": [28.9295594, 41.0796898]}, "properties": {"id": 148, "name": "Veysel Karani-Ak\u015femsettin", "mode": "metro"}}, {"type": "Feature", "geometry": {"type": "Point", "coordinates": [28.960705, 41.011475]}, "properties": {"id": 29, "name": "Vezneciler-\u0130stanbul \u00dc.", "mode": "metro"}}, {"type": "Feature", "geometry": {"type": "Point", "coordinates": [29.226960280320945, 40.896729838850625]}, "properties": {"id": 25, "name": "Yakac\u0131k-Adnan Kahveci", "mode": "metro"}}, {"type": "Feature", "geometry": {"type": "Point", "coordinates": [29.10893285940382, 41.02436045931574]}, "properties": {"id": 129, "name": "Yamanevler", "mode": "metro"}}, {"type": "Feature", "geometry": {"type": "Point", "coordinates": [28.863651758, 41.0238219843]}, "properties": {"id": 59, "name": "Yavuzselim", "mode": "metro"}}, {"type": "Feature", "geometry": {"type": "Point", "coordinates": [29.275928959686205, 40.90415466320274]}, "properties": {"id": 197, "name": "Yayalar-\u015eeyhli", "mode": "metro"}}, {"type": "Feature", "geometry": {"type": "Point", "coordinates": [28.837963, 40.989473]}, "properties": {"id": 110, "name": "Yenibosna", "mode": "metro"}}, {"type": "Feature", "geometry": {"type": "Point", "coordinates": [28.952549, 41.004755]}, "properties": {"id": 28, "name": "Yenikap\u0131", "mode": "metro"}}, {"type": "Feature", "geometry": {"type": "Point", "coordinates": [28.8931096, 41.0837182]}, "properties": {"id": 51, "name": "Yenimahalle", "mode": "metro"}}, {"type": "Feature", "geometry": {"type": "Point", "coordinates": [29.090125340335963, 40.984973265772204]}, "properties": {"id": 7, "name": "Yenisahra", "mode": "metro"}}, {"type": "Feature", "geometry": {"type": "Point", "coordinates": [28.9352699, 41.0799901]}, "properties": {"id": 149, "name": "Ye\u015filp\u0131nar", "mode": "metro"}}, {"type": "Feature", "geometry": {"type": "Point", "coordinates": [29.009803051316943, 41.055457368403594]}, "properties": {"id": 140, "name": "Y\u0131ld\u0131z", "mode": "metro"}}, {"type": "Feature", "geometry": {"type": "Point", "coordinates": [28.856716911557328, 41.01977477131699]}, "properties": {"id": 220, "name": "Y\u0131ld\u0131ztepe", "mode": "metro"}}, {"type": "Feature", "geometry": {"type": "Point", "coordinates": [28.9471169908, 41.0099988102]}, "properties": {"id": 75, "name": "Yusufpa\u015fa", "mode": "metro"}}, {"type": "Feature", "geometry": {"type": "Point", "coordinates": [28.8896520683, 41.0017008338]}, "properties": {"id": 65, "name": "Zeytinburnu", "mode": "metro"}}, {"type": "Feature", "geometry": {"type": "Point", "coordinates": [28.786425453865895, 41.07468683895818]}, "properties": {"id": 193, "name": "Ziya G\u00f6kalp Mahallesi", "mode": "metro"}}]}